{
"type": "FeatureCollection",
"name": "Tree_Preservation_Order_Points",
"crs": { "type": "name", "properties": { "name": "urn:ogc:def:crs:OGC:1.3:CRS84" } },
"features": [
{ "type": "Feature", "properties": { "OBJECTID": 1, "TREE_NO": "1", "TPO_NO": "455", "SPEC_CODE": 31, "SPEC_NAME": "Purple Plum (Prunus cerasifera)", "EASTING": 530078.6107, "NORTHING": 174535.8032, "UPRN_1": 100021858585, "CODE": 2538, "ORDER_MADE": "2007-12-10T00:00:00Z", "LEGISLATION": "Town and Country Planning Act 1990" }, "geometry": { "type": "Point", "coordinates": [ -0.129206647898128, 51.454868273938601 ] } },
{ "type": "Feature", "properties": { "OBJECTID": 2, "TREE_NO": "2", "TPO_NO": "65", "SPEC_CODE": 19, "SPEC_NAME": "Sycamore (Acer pseudoplatanus)", "EASTING": 530074.6376, "NORTHING": 174511.2329, "UPRN_1": 100021858585, "CODE": 1277, "ORDER_MADE": "1975-10-06T00:00:00Z", "LEGISLATION": "Town and Country Planning Act 1971" }, "geometry": { "type": "Point", "coordinates": [ -0.129272821866479, 51.454648374103478 ] } },
{ "type": "Feature", "properties": { "OBJECTID": 3, "TREE_NO": "1", "TPO_NO": "65", "SPEC_CODE": 19, "SPEC_NAME": "Sycamore (Acer pseudoplatanus)", "EASTING": 530077.7337, "NORTHING": 174522.7329, "UPRN_1": 100021858585, "CODE": 1276, "ORDER_MADE": "1975-10-06T00:00:00Z", "LEGISLATION": "Town and Country Planning Act 1971" }, "geometry": { "type": "Point", "coordinates": [ -0.129224064026756, 51.454751012866843 ] } },
{ "type": "Feature", "properties": { "OBJECTID": 4, "TREE_NO": "27", "TPO_NO": "38", "SPEC_CODE": 19, "SPEC_NAME": "Sycamore (Acer pseudoplatanus)", "EASTING": 531417.6072, "NORTHING": 172633.906, "UPRN_1": 100021858842, "CODE": 494, "ORDER_MADE": "1975-05-06T00:00:00Z", "LEGISLATION": "Town and Country Planning Act 1971" }, "geometry": { "type": "Point", "coordinates": [ -0.110651806088685, 51.437467153758952 ] } },
{ "type": "Feature", "properties": { "OBJECTID": 5, "TREE_NO": "32", "TPO_NO": "38", "SPEC_CODE": 1, "SPEC_NAME": "Ash (Fraxinus excelsior)", "EASTING": 531136.6864, "NORTHING": 172631.2604, "UPRN_1": 100021858940, "CODE": 498, "ORDER_MADE": "1975-05-06T00:00:00Z", "LEGISLATION": "Town and Country Planning Act 1971" }, "geometry": { "type": "Point", "coordinates": [ -0.114692057397845, 51.437508445718834 ] } },
{ "type": "Feature", "properties": { "OBJECTID": 6, "TREE_NO": "34", "TPO_NO": "38", "SPEC_CODE": 1, "SPEC_NAME": "Ash (Fraxinus excelsior)", "EASTING": 531133.81, "NORTHING": 172695.674, "UPRN_1": 100021858948, "CODE": 499, "ORDER_MADE": "1975-05-06T00:00:00Z", "LEGISLATION": "Town and Country Planning Act 1971" }, "geometry": { "type": "Point", "coordinates": [ -0.114709585283029, 51.438087987497212 ] } },
{ "type": "Feature", "properties": { "OBJECTID": 7, "TREE_NO": "37", "TPO_NO": "38", "SPEC_CODE": 76, "SPEC_NAME": "Flowering Cherry", "EASTING": 531146.3619, "NORTHING": 172739.611, "UPRN_1": 100021858951, "CODE": 500, "ORDER_MADE": "1975-05-06T00:00:00Z", "LEGISLATION": "Town and Country Planning Act 1971" }, "geometry": { "type": "Point", "coordinates": [ -0.114512847516531, 51.43847993927433 ] } }]
}
